City_ID,City,Country,Max Temp,Current Description,Lat,Lng,Hotel Name
0,Iqaluit,CA,24.8,overcast clouds,63.7506,-68.5145,Frobisher Inn
5,Atuona,PF,80.11,overcast clouds,-9.8,-139.0333,Villa Enata
6,New Norfolk,AU,57.99,overcast clouds,-42.7826,147.0587,The Shingles Riverside Cottages
7,Iracoubo,GF,78.82,overcast clouds,5.4802,-53.2011,Le Gite D Iracoubo
8,Port Alfred,ZA,73.0,broken clouds,-33.5906,26.891,The Halyards Hotel
9,Ushuaia,AR,53.6,few clouds,-54.8,-68.3,Albatros Hotel
10,Rikitea,PF,77.72,light rain,-23.1203,-134.9692,Pension Maro'i
11,Hobart,AU,57.99,overcast clouds,-42.8794,147.3294,St Ives Hobart Accommodation Tasmania
12,Hermanus,ZA,69.01,overcast clouds,-34.4187,19.2345,Misty Waves Boutique Hotel
13,Homer,US,33.8,clear sky,59.6425,-151.5483,Beluga Lake Lodge
15,Bredasdorp,ZA,69.8,overcast clouds,-34.5322,20.0403,Bredasdorp Country Manor
16,Cape Town,ZA,73.99,broken clouds,-33.9258,18.4232,"Radisson Blu Hotel Waterfront, Cape Town"
18,Praia Da Vitoria,PT,62.6,scattered clouds,38.7333,-27.0667,Hotel Branco I
19,Cairns,AU,78.8,overcast clouds,-16.9167,145.7667,Mantra Trilogy Cairns
21,Moratuwa,LK,78.8,clear sky,6.773,79.8816,Sa Mansion By Yoho
22,Le Moule,GP,77.0,broken clouds,16.3332,-61.3473,Lakaz Hananou
23,Busselton,AU,59.0,light rain,-33.65,115.3333,Observatory Guest House
25,Fairview,US,44.6,clear sky,40.8126,-73.999,Homewood Suites by Hilton Edgewater-NYC Area
26,Lasa,IT,41.0,scattered clouds,46.6166,10.7002,Pension Feldgärtenhof
27,Puerto Ayora,EC,80.6,broken clouds,-0.7393,-90.3518,Castillo Galapagos
28,Isangel,VU,77.79,clear sky,-19.55,169.2667,Volcano Sea View Tree House
29,Kamaishi,JP,39.76,broken clouds,39.2667,141.8833,Hotel Route Inn Kamaishi
30,East London,ZA,73.4,few clouds,-33.0153,27.9116,Tu Casa
31,Bengkulu,ID,76.37,overcast clouds,-3.8004,102.2655,Grage Hotel Bengkulu
33,Korla,CN,28.45,clear sky,41.7597,86.1469,Gulisitan Hotel
34,Chengde,CN,23.05,few clouds,40.9725,117.9361,Super 8 Hotel
35,Punta Arenas,CL,59.0,scattered clouds,-53.15,-70.9167,Hotel Dreams Del Estrecho
36,Rovinj,HR,55.4,overcast clouds,45.08,13.64,Hotel Monte Mulini
37,Tecpan,GT,75.2,clear sky,14.7623,-90.9947,San Ricardo Restaurante y Hotel
38,Yenagoa,NG,82.29,clear sky,4.9247,6.2642,Aridolf Resort Wellness and Spa
39,Georgetown,MY,80.6,few clouds,5.4112,100.3354,Cititel Penang
40,Bluff,NZ,53.69,clear sky,-46.6,168.3333,Bluff Homestead - Guesthouse & Campervan Park
41,Codrington,AU,57.92,overcast clouds,-38.2667,141.9667,Codrington Gardens Bed And Breakfast
42,Sterling,US,48.99,overcast clouds,39.0062,-77.4286,Hampton Inn & Suites Washington-Dulles International Airport
43,San Cristobal,VE,87.8,few clouds,7.7669,-72.225,Pirineos
44,Hilo,US,66.0,clear sky,19.7297,-155.09,Hilo Hawaiian Hotel
47,Andernach,DE,37.99,overcast clouds,50.4333,7.4,Parkhotel Am Schänzchen
48,Port Lincoln,AU,60.04,scattered clouds,-34.7333,135.8667,Port Lincoln Hotel
49,Ixtapa,MX,78.8,scattered clouds,20.7,-105.2,Container Inn Puerto Vallarta
52,Castro,BR,76.33,clear sky,-24.7911,-50.0119,CHACARA BAILLY
54,Brookhaven,US,48.99,broken clouds,31.5791,-90.4407,Americas Best Value Inn Brookhaven
55,Calamar,CO,86.0,few clouds,10.2511,-74.9146,Hostal Katyalex
56,Barrhead,GB,39.2,overcast clouds,55.7992,-4.3929,The Gleniffer
57,Xining,CN,22.51,overcast clouds,36.6167,101.7667,Super Leisure Hotel
58,Butaritari,KI,81.1,overcast clouds,3.0707,172.7902,Isles Sunset Lodge
59,Mataura,NZ,52.38,clear sky,-46.1927,168.8643,Ellie's Villa
60,Meulaboh,ID,77.36,broken clouds,4.1363,96.1285,Kost Pria
61,Christchurch,NZ,60.01,overcast clouds,-43.5333,172.6333,"Chateau on the Park - Christchurch, a DoubleTree by Hilton"
63,Greenville,US,51.8,clear sky,35.6127,-77.3663,Holiday Inn Express Greenville
65,Saint Pete Beach,US,75.0,overcast clouds,27.7253,-82.7412,Grand Plaza Hotel - St. Pete Beach
66,Margate,GB,44.01,light rain,51.3813,1.3862,Premier Inn Margate hotel
68,Upernavik,GL,20.57,overcast clouds,72.7868,-56.1549,Gina's Guesthouse - Upernavik
69,Saldanha,ZA,69.8,broken clouds,-33.0117,17.9442,Blue Bay Lodge
70,Sao Joao Da Barra,BR,75.2,moderate rain,-21.6403,-41.0511,Pousada Porto De Canoas
71,Jalu,LY,63.28,clear sky,29.0331,21.5482,صاحبة الفخامة
73,Dingle,PH,74.46,broken clouds,10.9995,122.6711,SEGAYA PROPERTY
74,Vaini,TO,75.2,broken clouds,-21.2,-175.2,Keleti Beach Resort
77,Jamestown,US,21.99,clear sky,42.097,-79.2353,Hampton Inn & Suites Jamestown
78,Tuatapere,NZ,54.25,clear sky,-46.1333,167.6833,Ron and Tony's Bed & Breakfast
79,Constitucion,CL,65.7,scattered clouds,-35.3333,-72.4167,Hotel Boutique Las Azucenas
80,Souillac,MU,78.8,scattered clouds,-20.5167,57.5167,Shanti Maurice Resort & Spa
81,Beidao,CN,41.79,overcast clouds,34.5686,105.8933,Shell Tianshui Maiji District Erma Road Walking Street Hotel
84,Ilulissat,GL,21.2,snow,69.2167,-51.1,Hotel Arctic
86,Kasulu,TZ,73.4,light rain,-4.5767,30.1025,Nazaret lodge
87,Mar Del Plata,AR,69.8,light rain,-38.0023,-57.5575,Gran Hotel Mar del Plata
89,Copiapo,CL,69.8,clear sky,-27.3667,-70.3333,Antay Casino Hotel
91,Kang,BW,69.39,light rain,-23.6752,22.7876,Kang Ultra Stop
92,Rassvet,RU,27.79,overcast clouds,46.8333,40.75,Gostinitsa
94,Mahebourg,MU,78.8,scattered clouds,-20.4081,57.7,Shandrani Beachcomber Resort & Spa
95,Portland,US,45.0,overcast clouds,45.5234,-122.6762,Embassy Suites by Hilton Portland Downtown
96,Padang,ID,75.2,few clouds,-0.9492,100.3543,Mercure Padang
97,Pontianak,ID,77.0,broken clouds,-0.0333,109.3333,Aston Pontianak Hotel & Convention Center
98,Bethel,US,41.0,scattered clouds,41.3712,-73.414,Courtyard by Marriott Danbury
99,Avarua,CK,80.6,few clouds,-21.2078,-159.775,Paradise Inn
100,Shawnee,US,25.0,snow,39.05,-95.7669,Fairfield Inn by Marriott Topeka
101,Airai,TL,60.19,overcast clouds,-8.9266,125.4092,Juvinal Martin
102,Kirkuk,IQ,56.01,overcast clouds,35.4681,44.3922,Cihad Oteli
103,Cidreira,BR,76.91,few clouds,-30.1811,-50.2056,Hotel Castelo
107,Klaksvik,FO,35.6,few clouds,62.2266,-6.589,Airbnb rooms
108,Qujing,CN,52.0,few clouds,25.4833,103.7833,Yulong Hotel
109,At-Bashi,KG,25.86,overcast clouds,41.1702,75.8106,Hostel At-Bashy
110,Ruidoso,US,45.0,clear sky,33.3317,-105.673,Inn of the Mountain Gods
111,Pisco,PE,75.2,broken clouds,-13.7,-76.2167,Hotel San Isidro Oficial
115,Kapaa,US,57.2,clear sky,22.0752,-159.319,Sheraton Kauai Resort at Coconut Beach
118,Oistins,BB,84.2,few clouds,13.0667,-59.5333,Butterfly Beach Hotel
119,Muswellbrook,AU,69.01,light rain,-32.2667,150.9,Wayfarer Motel
122,Hofn,IS,34.77,light snow,64.2539,-15.2082,Hótel Höfn
124,Iquique,CL,77.0,clear sky,-20.2208,-70.1431,Backpacker`s Hostel Iquique
125,Victoria,HK,66.0,clear sky,22.2855,114.1577,Mini Hotel Central
126,Kavaratti,IN,81.21,clear sky,10.5669,72.642,Hotels in Lakshadweep Islands
127,Iranshahr,IR,62.6,clear sky,27.2025,60.6848,نیک سرشت
128,Touros,BR,87.8,scattered clouds,-5.1989,-35.4608,INN NEW HORIZON
129,Kruisfontein,ZA,69.01,clear sky,-34.0033,24.7314,Oyster Bay House Rental
130,Manaure,CO,87.57,overcast clouds,11.7751,-72.4445,Hotel Palaaima
133,Ancud,CL,77.0,clear sky,-41.8697,-73.8203,Hotel Arena Gruesa
134,Ribeira Brava,PT,57.99,scattered clouds,32.65,-17.0667,Hotel do Campo
136,Faanui,PF,81.34,clear sky,-16.4833,-151.75,Bora-Bora Pearl Beach Resort & Spa
138,Bichena,ET,56.61,clear sky,10.45,38.2,yichalal hotel
139,Polson,US,32.0,light snow,47.6936,-114.1632,Americas Best Value Port Polson Inn
141,Pangkalanbuun,ID,74.95,overcast clouds,-2.6833,111.6167,Grand Kecubung Hotel
146,Sao Filipe,CV,70.83,overcast clouds,14.8961,-24.4956,Tortuga B&B
147,Buta,CD,73.54,clear sky,2.7858,24.73,HOTEL BISO NA BISO
149,Fortuna,US,50.0,overcast clouds,40.5982,-124.1573,Super 8 by Wyndham Fortuna
150,Shimoda,JP,49.14,clear sky,34.6667,138.95,Shimoda Tokyu Hotel
151,Payakumbuh,ID,69.3,overcast clouds,-0.2202,100.6308,OYO 3114 Homestay Dalimo
152,Kavieng,PG,81.63,broken clouds,-2.5744,150.7967,Nusa Island Retreat
153,Sakaiminato,JP,39.2,few clouds,35.55,133.2333,味処・民宿 まつや
154,Cabedelo,BR,87.8,few clouds,-6.9811,-34.8339,Hotel Pigalle
155,Fallon,US,44.01,few clouds,39.4735,-118.7774,Best Western Fallon Inn & Suites
156,Hithadhoo,MV,81.45,few clouds,-0.6,73.0833,Scoop Guest House
157,Port Elizabeth,ZA,69.8,overcast clouds,-33.918,25.5701,39 On Nile Guest House
159,Rawson,AR,64.58,overcast clouds,-43.3002,-65.1023,Hosteria Sampedro
160,Pula,HR,55.4,overcast clouds,44.8683,13.8481,Park Plaza Histria Pula
161,Sawakin,SD,73.15,clear sky,19.1059,37.3321,فندق الدويم
162,Ambanja,MG,76.06,light rain,-13.6833,48.45,Hotel Salama and Fast Food
164,Kismayo,SO,77.0,broken clouds,-0.3582,42.5454,Agan-Hotel
165,Kantunilkin,MX,86.0,scattered clouds,21.0917,-87.45,Posada Paraiso
166,Abu Dhabi,AE,73.4,clear sky,24.4667,54.3667,Beach Rotana
167,Podborany,CZ,28.99,light snow,50.2294,13.4119,Hotel & Motorest V Údolí Zlatého potoka
168,Ribeira Grande,PT,60.8,broken clouds,38.5167,-28.7,Quinta da Meia Eira
169,Roald,NO,23.0,clear sky,62.5833,6.1333,Flem Cabins
170,Baringo,KE,78.24,overcast clouds,0.4667,35.9667,Country Legend Resort
171,Sainte-Suzanne,RE,78.8,moderate rain,-20.9061,55.6089,Gites Ango
172,Honiara,SB,77.14,light rain,-9.4333,159.95,Heritage Park Hotel
173,Nanakuli,US,69.8,overcast clouds,21.3906,-158.1547,Camp Pālehua
174,Tasiilaq,GL,32.0,light rain,65.6145,-37.6368,The Red House
175,Sorland,NO,34.84,broken clouds,67.667,12.6934,Sjybrygga fiskecamp
176,Bacolod,PH,76.95,overcast clouds,10.6667,122.95,Planta Hotel & Residences
178,Sitka,US,35.6,light snow,57.0531,-135.33,Westmark Sitka
179,Torbay,CA,35.6,light rain,47.6666,-52.7314,Gallows Cove
180,Ponta Do Sol,PT,57.99,scattered clouds,32.6667,-17.1,Hotel do Campo
183,Sibolga,ID,76.8,overcast clouds,1.7427,98.7792,Hotel Syariah CN Darussalam
185,Severo-Kurilsk,RU,20.66,light snow,50.6789,156.125,Kak Doma
187,Bikaner,IN,58.39,clear sky,28.0167,73.3,The Laxmi Niwas Palace
188,Broome,US,32.0,scattered clouds,42.2506,-75.833,Chenango Valley State Park
190,Lebu,CL,62.64,broken clouds,-37.6167,-73.65,Hostal Las Lilas
192,Arraial Do Cabo,BR,75.2,moderate rain,-22.9661,-42.0278,Pousada Porto Praia
194,Barabinsk,RU,31.03,overcast clouds,55.3571,78.357,"Gostinitsa ""Noy"""
195,Dicabisagan,PH,75.36,broken clouds,17.0818,122.4157,Nancy Montanes Bernardo
197,Kaitangata,NZ,52.27,clear sky,-46.2817,169.8464,Kaitangata Motor Camp
198,Yichang,CN,48.0,scattered clouds,30.7144,111.2847,Gezhouba Hotel
199,Seoul,KR,44.6,fog,37.5683,126.9778,Lotte Hotel Seoul
200,Narsaq,GL,33.8,clear sky,60.9167,-46.05,Hotel Narsaq
201,Am Timan,TD,74.44,few clouds,11.0297,20.2827,Palais du chef Canton Salamt
202,Carnarvon,AU,80.6,clear sky,-24.8667,113.6333,Hospitality Carnarvon
203,Bambous Virieux,MU,80.01,scattered clouds,-20.3428,57.7575,Casa Tia Villa
204,Kaspiyskiy,RU,32.47,overcast clouds,45.3929,47.3707,"Gostinitsa ""Gostevoy Dvor"""
205,Riviere-Au-Renard,CA,32.0,light snow,48.9957,-64.3971,Auberge Le Caribou
207,Longyearbyen,SJ,23.0,broken clouds,78.2186,15.6401,"Radisson Blu Polar Hotel, Spitsbergen"
208,Denizli,TR,42.8,clear sky,37.8402,29.0698,Anemon Denizli Hotel
209,Budaun,IN,53.78,clear sky,28.05,79.1167,Hotel J.P. Palace
210,Chuy,UY,83.3,clear sky,-33.6971,-53.4616,Nuevo Hotel Plaza
214,Gudur,IN,68.18,few clouds,14.1333,79.85,BALAJI KITCHENS
215,Maragogi,BR,83.05,broken clouds,-9.0122,-35.2225,Salinas do Maragogi All Inclusive Resort
216,Aswan,EG,65.16,clear sky,24.0934,32.907,Nuba Nile
217,Byron Bay,AU,69.8,overcast clouds,-28.65,153.6167,Backpackers Inn on the Beach
219,Nedjo,ET,59.43,overcast clouds,9.5046,35.5019,Yerosan Hotel
220,Mount Gambier,AU,55.4,overcast clouds,-37.8333,140.7667,Commodore on the Park
221,Ahipara,NZ,60.01,overcast clouds,-35.1667,173.1667,Ahipara Holiday Park
223,Bac Lieu,VN,75.47,overcast clouds,9.285,105.7244,Khách sạn Sài Gòn Bạc Liêu
224,Monrovia,LR,78.8,broken clouds,6.3005,-10.7969,Sunset Inn
225,Evans,US,51.01,light rain,33.5337,-82.1307,Wymberly
226,Rumoi,JP,21.7,overcast clouds,43.9344,141.6428,Business Hotel R-Inn
227,Poum,NC,79.9,clear sky,-20.2333,164.0167,Gîte kajeon
228,Mindelo,CV,71.6,broken clouds,16.8901,-24.9804,Hotel Gaudi
229,Sheopur,IN,55.94,clear sky,25.6667,76.7,Shri Ram Dharmshala
230,Atambua,ID,73.4,overcast clouds,-9.1061,124.8925,Pastori 1 Jemaat Polycarpus
231,Landeck,AT,41.0,scattered clouds,47.1301,10.5636,Hotel Jägerhof
232,Maniitsoq,GL,25.16,clear sky,65.4167,-52.9,Hotel Heilmann Lyberth
234,Vestmannaeyjar,IS,37.4,few clouds,63.4427,-20.2734,Glamping & Camping
235,Benghazi,LY,65.07,overcast clouds,32.1167,20.0667,Tibesti Hotel
236,Uthal,PK,59.22,clear sky,25.8072,66.6219,Al Madina Hotal
237,Beaumont,US,60.8,overcast clouds,30.0861,-94.1019,Super 8 by Wyndham Beaumont
238,Geraldton,AU,69.8,overcast clouds,-28.7667,114.6,Broadwater Mariner Resort
240,Kodiak,US,28.4,clear sky,57.79,-152.4072,Best Western Kodiak Inn And Convention Center
241,Ilhabela,BR,78.17,scattered clouds,-23.7781,-45.3581,Ilha Flat Hotel
243,Kaeo,NZ,60.01,overcast clouds,-35.1,173.7833,Bushido Lodge
244,Jijiga,ET,60.58,clear sky,9.35,42.8,RAMAAS HOTEL
245,Veshenskaya,RU,21.61,light snow,49.6303,41.7334,Kazachiy Kuren Inn
246,Guia De Isora,ES,66.2,scattered clouds,28.2115,-16.7795,La Vista Pension
248,Khorramabad,IR,44.55,overcast clouds,33.4878,48.3558,Azadi Hotel
251,Huntington,US,45.0,clear sky,38.4193,-82.4452,Ramada Limited Huntington
258,Darlowo,PL,26.01,light snow,54.421,16.4107,Hotel Lidia SPA & Wellness
259,Pomabamba,PE,62.02,moderate rain,-8.8333,-77.4667,VIVIENDA - ELSA CABELLO
260,Coihaique,CL,73.4,broken clouds,-45.5752,-72.0662,Diego De Almagro Coyhaique
261,Lompoc,US,63.0,clear sky,34.6391,-120.4579,Holiday Inn Express Lompoc
262,Miramar,US,80.6,moderate rain,25.9873,-80.2323,Stadium Hotel
263,Coquimbo,CL,68.0,few clouds,-29.9533,-71.3436,Hotel San Juan
264,Namibe,AO,72.14,broken clouds,-15.1961,12.1522,Hotel Chik Chik Namibe
265,Phalaborwa,ZA,75.2,overcast clouds,-23.943,31.1411,Amarula Guest House
268,Singkawang,ID,75.43,overcast clouds,0.9,109.0,Capital O 1822 Wahana Inn
269,Port-Gentil,GA,82.4,moderate rain,-0.7193,8.7815,Fengshui Residence
270,Bilma,NE,67.95,broken clouds,18.6853,12.9164,Expeditions Ténére voyages
271,Hambantota,LK,73.4,few clouds,6.1241,81.1185,Bungalow 63
272,Naze,JP,60.75,overcast clouds,28.3667,129.4833,奄美ポートタワーホテル
273,Papara,BR,87.8,scattered clouds,-3.9839,-38.7273,Romin
275,Rincon,US,50.0,overcast clouds,32.296,-81.2354,Bent tree subdivision
279,Buraydah,SA,51.8,broken clouds,26.326,43.975,Mövenpick Hotel Qassim
281,Saint-Philippe,RE,79.0,light rain,-21.3585,55.7679,"Chambres d'hôte ""La Trinité"""
282,Sechura,PE,83.39,scattered clouds,-5.5569,-80.8222,Hospedaje Costa Bella
283,Yulara,AU,73.4,clear sky,-25.2406,130.9889,Desert Gardens Hotel - Ayers Rock Resort
285,Ploemeur,FR,44.01,few clouds,47.7333,-3.4333,Best Western Plus Hotel Les Rives Du Ter
286,Gizo,SB,82.72,light rain,-8.103,156.8419,Imagination Island
287,Caravelas,BR,79.11,overcast clouds,-17.7125,-39.2481,Pousada dos Navegantes
288,Viedma,AR,78.01,clear sky,-40.8135,-62.9967,Hotel Cristal
289,Calama,CL,75.2,clear sky,-22.4667,-68.9333,Park Hotel Calama
291,Caranavi,BO,80.19,overcast clouds,-15.8167,-67.55,Hotel Landivar
292,Buala,SB,80.42,light rain,-8.145,159.5921,Maringe Lagoon Lodge
293,Aquiraz,BR,87.8,scattered clouds,-3.9014,-38.3911,Pousada Rua Camurupim
297,Nouadhibou,MR,68.0,sand,20.931,-17.0347,El Medina
298,Fukue,JP,55.78,clear sky,32.6881,128.8419,Goto Guesthouse Utojuku & SA Car Rental
299,Grindavik,IS,35.6,scattered clouds,63.8424,-22.4338,Northern Light Inn & Max's Restaurant
301,Tautira,PF,75.2,light rain,-17.7333,-149.15,Pension Oaoa
302,Waingapu,ID,77.88,overcast clouds,-9.6567,120.2641,Pondok Wisata Elim
303,Antofagasta,CL,73.99,few clouds,-23.65,-70.4,Holiday Inn Express Antofagasta
307,Nuuk,GL,24.8,clear sky,64.1835,-51.7216,Vandrehuset
308,Taltal,CL,69.4,few clouds,-25.4,-70.4833,Residencial Karime
310,Nanortalik,GL,22.62,clear sky,60.1432,-45.2371,Hotel Kap Farvel
311,San Quintin,MX,63.9,clear sky,30.4833,-115.95,Old Mill Hotel
312,Naranjal,EC,86.0,broken clouds,-2.6667,-79.6167,Media Naranja
313,Phaltan,IN,69.58,clear sky,17.9833,74.4333,Hotel New Vijay
314,Bairiki,KI,78.8,light rain,1.3292,172.9752,Tarawa Boutique Hotel
316,Faya,SA,51.8,few clouds,18.3851,42.4509,مقبرة ال مجمل
317,La Roche-Sur-Yon,FR,44.6,light intensity drizzle,46.6667,-1.4333,"The Originals City, Hôtel Napoléon, La Roche-sur-Yon (Inter-Hotel)"
318,Kailua,US,66.2,clear sky,21.4022,-157.7394,Sheffield House Bed & Breakfast
319,Matay,EG,59.27,clear sky,28.419,30.7792,Nag Aespen
321,Shingu,JP,44.51,clear sky,33.7333,135.9833,Shingu UI Hotel
322,Elizabeth City,US,55.0,clear sky,36.2946,-76.2511,Hampton Inn Elizabeth City
324,Gombe,NG,87.8,haze,10.2897,11.1673,Custodian Hotel Gombe
325,Vaitape,PF,81.34,clear sky,-16.5167,-151.75,Conrad Bora Bora Nui
327,Nantucket,US,43.0,clear sky,41.2835,-70.0995,Jared Coffin House
329,Sambava,MG,78.62,overcast clouds,-14.2667,50.1667,Melrose
330,Burnie,AU,61.0,clear sky,-41.0667,145.9167,Beachfront Voyager Motor Inn
331,Ulladulla,AU,66.0,scattered clouds,-35.35,150.4667,Sandpiper Motel
334,Port Augusta,AU,64.4,broken clouds,-32.5,137.7667,Majestic Oasis Apartments
336,Ambovombe,MG,77.61,light rain,-25.1667,46.0833,RELAHARA
337,Flinders,AU,64.99,clear sky,-34.5833,150.8552,Shellharbour Resort & Conference Centre
338,Lugovoy,KZ,39.15,light rain,42.9472,72.7644,Ж.Д Вокзал Луговая
339,Reinosa,ES,46.99,overcast clouds,42.9996,-4.138,Hotel Vejo
340,Lianzhou,CN,62.13,clear sky,24.7811,112.3825,Qingcheng Tourism Industry
341,Santa Marta,CO,89.01,scattered clouds,11.2408,-74.199,Hotel La Ballena Azul
342,Marrakesh,MA,50.0,broken clouds,31.6315,-8.0083,Les Jardins de La Koutoubia
343,Ambulu,ID,76.73,overcast clouds,-8.345,113.6058,Hotel Ambulu Jember
344,Los Llanos De Aridane,ES,64.4,few clouds,28.6585,-17.9182,Valle Aridane
345,Parrita,CR,84.2,clear sky,9.5201,-84.3225,Beso del Viento
346,Palestine,PS,61.0,scattered clouds,31.9216,35.2033,Grand Park Hotel
347,Qaqortoq,GL,33.8,clear sky,60.7167,-46.0333,Hotel Qaqortoq
348,Jihlava,CZ,30.99,overcast clouds,49.3961,15.5912,Grandhotel Garni
350,Alyangula,AU,78.8,light rain,-13.8483,136.4192,Groote Eylandt Lodge
351,Shenjiamen,CN,49.75,clear sky,29.9576,122.298,Jinjiang Inn Zhoushan Putuo Shenjiamen
352,Bartlesville,US,39.2,overcast clouds,36.7473,-95.9808,Hilton Garden Inn Bartlesville
353,Komsomolskiy,UZ,41.0,mist,40.4272,71.7189,Ikathouse
355,Namwala,ZM,69.66,overcast clouds,-15.7504,26.4384,Corner Point Lodge
356,Saraza,PH,77.65,overcast clouds,8.7356,117.78,NOREEN GALLEGO
357,Gamboma,CG,78.48,overcast clouds,-1.8764,15.8644,Residence N'Keni
358,Grand Gaube,MU,80.01,clear sky,-20.0064,57.6608,Veranda Paul et Virginie Hotel & Spa
359,Oudtshoorn,ZA,66.2,scattered clouds,-33.5907,22.2014,Earthbound Guest House
360,Arlit,NE,69.1,clear sky,18.7369,7.3853,Case de Passage De la Prefecture
361,Bonthe,SL,80.98,overcast clouds,7.5264,-12.505,Bonthe Holiday Village
362,Mbandaka,CD,78.55,clear sky,0.0487,18.2603,Guest House Epervier
364,Lakatoro,VU,78.44,clear sky,-16.0999,167.4164,Lakatoro Palm Lodge
365,Vanimo,PG,76.87,overcast clouds,-2.6741,141.3028,Vahmoneh Lodge Vanimo
366,Lorengau,PG,81.75,overcast clouds,-2.0226,147.2712,Lorengau Harbourside Hotel
368,Xalpatlahuac,MX,81.93,clear sky,17.4667,-98.6167,Hotel Villarreal
369,Kirakira,SB,79.66,overcast clouds,-10.4544,161.9205,SanBiz Lodge
370,Belize,BZ,86.0,clear sky,17.25,-88.75,Villa San Juan
371,Veraval,IN,69.62,clear sky,20.9,70.3667,Lords Inn Somnath
372,Lagoa,PT,59.99,overcast clouds,39.05,-27.9833,Casa Das Faias
373,Casma,CL,80.6,clear sky,-41.0082,-73.1244,Hospedaje Casma
374,Tortoli,IT,55.4,fog,39.9256,9.6572,Hotel La Bitta
375,Jiaonan,CN,46.99,clear sky,35.8786,119.9753,Vienna Hotel Qingdao Huangdao
376,Alugan,PH,78.91,scattered clouds,12.2188,125.4808,JM Lodge
378,Brufut,GM,78.8,overcast clouds,13.3814,-16.7518,Sheraton Gambia Hotel Resort & Spa
380,Hasaki,JP,37.4,fog,35.7333,140.8333,Inubosaki Kanko Hotel
382,Augusto Correa,BR,86.85,broken clouds,-1.0217,-46.635,Fazenda Bacuri
383,Ishinomaki,JP,42.04,broken clouds,38.4167,141.3,Hotel Route Inn Ishinomaki Henan Inter
384,Baie-Comeau,CA,28.4,haze,49.2168,-68.1489,Travelodge by Wyndham Baie Comeau
387,Chardara,KZ,50.2,light rain,41.2547,67.9692,Жанаргул
388,Ijui,BR,77.0,few clouds,-28.3878,-53.9147,Hotel Vera Cruz
390,Ovsyanka,RU,26.6,clear sky,55.9575,92.5519,Hotel Alsey Krasnoyarsk
391,Atar,MR,73.4,clear sky,20.5169,-13.0499,Oumou Elghoura
392,La Macarena,CO,82.65,overcast clouds,2.1837,-73.7849,Casa Hotel Real
394,Esperance,AU,59.0,scattered clouds,-33.8667,121.9,Hospitality Esperance
395,Mathathane,BW,77.7,light rain,-22.2687,28.7495,Selepswe Resort
396,Tucuman,AR,87.8,clear sky,-26.8241,-65.2226,Dallas Hotel Tucuman
397,Port Hedland,AU,77.0,clear sky,-20.3167,118.5667,The Esplanade Hotel
398,Laguna,US,55.0,clear sky,38.421,-121.4238,Holiday Inn Express & Suites Elk Grove Central - Hwy 99
399,Southbridge,US,39.99,scattered clouds,42.0751,-72.0334,Southbridge Hotel & Conference Center
400,Uray,RU,33.84,light snow,60.1247,64.7758,Hotel Pioner
401,Mkushi,ZM,66.94,light rain,-13.6202,29.3939,HARVEST Inn Mkushi
402,Hof,DE,32.0,light snow,50.3167,11.9167,Hotel Burghof
403,Baiyin,CN,33.01,clear sky,36.5583,104.2081,GreenTree Alliance Gansu Baiyin Renmin Road Hotel
404,Kudahuvadhoo,MV,81.19,scattered clouds,2.6708,72.8944,Niyama Private Islands Maldives
405,Cabo San Lucas,MX,80.01,clear sky,22.8909,-109.9124,Hotel Tesoro Los Cabos
406,Barra De Sao Francisco,BR,79.86,moderate rain,-18.755,-40.8908,Td Hotel
407,Bandarbeyla,SO,76.32,few clouds,9.4942,50.8122,JABIR HOTEL
409,Namatanai,PG,79.02,broken clouds,-3.6667,152.4333,Namatanai Hotel
411,Cardenas,CU,78.8,broken clouds,23.0375,-81.2047,Casa JF 1906
412,Aljezur,PT,51.01,overcast clouds,37.3191,-8.8033,Amazigh Hostel
413,Port Hueneme,US,66.99,clear sky,34.1478,-119.1951,Hampton Inn Channel Islands Harbor
415,Tabas,IR,53.6,clear sky,33.5959,56.9244,شرکت معماری مهراز شایگان آراد
420,Saint George,US,53.01,clear sky,37.1041,-113.5841,Best Western Plus Abbey Inn
423,Saint-Pierre,RE,79.0,broken clouds,-21.3393,55.4781,Lindsey Hôtel
424,Mocuba,MZ,76.33,overcast clouds,-16.8392,36.9856,Phama Lodge
426,Puerto Escondido,MX,87.8,few clouds,15.85,-97.0667,Aldea del Bazar Hotel and Spa
427,Astoria,US,46.99,mist,46.1879,-123.8313,Best Western Astoria Bayfront Hotel
428,Hobyo,SO,77.56,clear sky,5.3505,48.5268,Halane Hotel and Restaurent
432,Joshimath,IN,38.41,clear sky,30.5667,79.5667,Shivalik Camps & Resort
433,Marawi,PH,73.99,overcast clouds,7.9986,124.2928,Derogongan Residence
434,Vardo,NO,23.0,light snow,70.3705,31.1107,Vardø Hotel AS
435,Ucluelet,CA,46.4,broken clouds,48.9329,-125.5528,Black Rock Oceanfront Resort
438,Iwaki,JP,37.0,clear sky,37.05,140.8833,Toyoko Inn Iwaki Ekimae
440,Crossville,US,44.01,overcast clouds,35.949,-85.0269,Hampton Inn Crossville
441,The Valley,AI,80.6,scattered clouds,18.217,-63.0578,CeBlue Villas & Beach Resort
443,Pampa,US,51.8,clear sky,35.5362,-100.9599,Holiday Inn Express & Suites Pampa
444,Tirumullaivasal,IN,74.23,clear sky,11.2333,79.8333,Hajaali
446,Le Port,RE,78.8,light rain,-20.9373,55.2919,Villa Maido
448,Mayo,US,51.01,broken clouds,38.8876,-76.5119,Resorts Resource Group International
450,Lons-Le-Saunier,FR,48.2,broken clouds,46.75,5.75,"Gîte ""La cabane du berger"""
452,Lewistown,US,37.99,clear sky,40.5992,-77.5714,Quality Inn & Suites
453,Mount Isa,AU,75.2,light rain,-20.7333,139.5,ibis Styles Mt Isa Verona
455,Cayenne,GF,78.8,broken clouds,4.9333,-52.3333,Hôtel Le Dronmi
456,Xinzhou,CN,33.04,clear sky,38.4092,112.7333,Shell Hotel - Xinzhou
457,Oktyabrskoye,RU,35.6,broken clouds,43.0645,44.7417,Prolesok Mini-hotel
458,Steamboat Springs,US,28.0,overcast clouds,40.485,-106.8317,Steamboat Grand
460,Hamilton,US,34.0,clear sky,39.1834,-84.5333,Six Acres Bed & Breakfast
461,Itarema,BR,85.39,broken clouds,-2.9248,-39.9167,"Sea Lounge! Bar, Club & Restaurant"
462,Bantry,IE,41.0,broken clouds,51.6833,-9.45,The Maritime Hotel
463,Centralia,US,46.0,broken clouds,46.7162,-122.9543,Peppermill Inn
464,Kahului,US,69.01,few clouds,20.8947,-156.47,Maui Seaside Hotel
465,Darnah,LY,62.46,overcast clouds,32.767,22.6367,فندق الفردوس
467,Ewa Beach,US,69.8,overcast clouds,21.3156,-158.0072,Base Lodging
468,Pachperwa,IN,52.72,clear sky,27.5167,82.65,भगत जी दहीबड़ा चना साबुदाना पकौड़ी
469,Paamiut,GL,22.57,clear sky,61.994,-49.6678,Yeet Hotel
471,San Patricio,US,68.0,overcast clouds,28.017,-97.5169,"Motel 6 Sinton, TX"
473,Katsuura,JP,42.8,clear sky,35.1333,140.3,Katsuura Hotel Mikazuki
474,Rio Claro,BR,87.8,scattered clouds,-22.4114,-47.5614,Hotel Vivendas Rio Claro by Atlantica
475,Zhangye,CN,27.48,clear sky,38.9342,100.4517,Zhangye Lvzhou Holiday Inn
476,Domoni,KM,81.14,overcast clouds,-12.2569,44.5319,Al Djadid
478,Cikupa,ID,82.0,heavy intensity rain,-6.2364,106.5083,Baguos Priyo Satiaji
479,Bharatpur,IN,53.2,clear sky,27.2167,77.4833,OYO 22446 Sonar Haveli
480,Jinan,CN,40.41,clear sky,36.6683,116.9972,Sofitel Silver Plaza Hotel Jinan
482,Kutum,SD,56.43,clear sky,14.2,24.6667,Dibbo areaمنطقة دبو
483,Victoria Point,AU,73.99,clear sky,-27.5833,153.3,Bay Retreat Motel
484,Kamina,CD,65.98,overcast clouds,-8.7386,24.9906,Guest House la Grace
485,Marmande,FR,48.99,overcast clouds,44.5,0.1667,Hôtel Restaurant Campanile Marmande
486,Borovskoy,KZ,30.76,light snow,53.8,64.15,Аренда жилья/Баня
489,Tutoia,BR,89.6,few clouds,-2.7619,-42.2744,Pousada Guará's
490,Severnoye,RU,31.42,overcast clouds,56.3491,78.3619,Gostinitsa Severyanka
491,Mattru,SL,82.72,broken clouds,7.6244,-11.8332,"Mondkor Town, Bagbo Chiefdom, Bo District"
492,Tarakan,ID,78.57,overcast clouds,3.3,117.6333,RedDoorz Syariah near Taman Berlabuh Tarakan
493,Samarai,PG,82.31,overcast clouds,-10.6167,150.6667,Nuli Sapi
494,Antalaha,MG,77.0,overcast clouds,-14.9003,50.2788,Hotel Vitasoa
495,Nhulunbuy,AU,80.6,overcast clouds,-12.2333,136.7667,East Arnhem Real Estate
496,Ocampo,MX,71.33,clear sky,21.65,-101.5,Hotel Estancia del Vaquero
497,Sapouy,BF,86.88,overcast clouds,11.5544,-1.7736,Auberge St Louis
499,Vao,NC,76.98,clear sky,-22.6667,167.4833,Hotel Kou-Bugny
500,Maracacume,BR,89.96,overcast clouds,-2.0428,-45.9592,Hotel Ramos
502,Magomeni,TZ,82.4,scattered clouds,-6.8,39.25,Holiday Inn Dar Es Salaam
503,Noumea,NC,77.0,few clouds,-22.2763,166.4572,Hôtel Le Lagon
504,Maneadero,MX,60.01,clear sky,31.7167,-116.5667,Casa De Thompson
505,Ayorou,NE,82.2,clear sky,14.7308,0.9174,Hotel Amenokal
507,Kalmunai,LK,76.66,few clouds,7.4167,81.8167,VS Villa
510,Ituacu,BR,89.74,moderate rain,-13.8133,-41.2967,Hotel Alelos
511,Gat,IL,62.01,clear sky,31.61,34.7642,OlusHome
512,Yambio,SS,74.17,clear sky,4.5721,28.3955,Naivasha Hotel
513,Waipawa,NZ,53.01,overcast clouds,-41.4122,175.5153,Tora Coastal Walk
515,Qeshm,IR,68.0,clear sky,26.9581,56.2719,Qeshm Kavan Hotel
516,Oytal,KZ,40.96,light rain,42.9057,73.2697,Sanatorium Ak-Niet
517,Etne,NO,21.99,clear sky,59.6648,5.9326,Fugl Fønix
518,Malakal,SS,72.59,broken clouds,9.5334,31.6605,Nile Palace Hotel
519,Bhainsdehi,IN,56.08,clear sky,21.6467,77.6325,Prince Rathore HOME
521,Gisborne,NZ,59.0,overcast clouds,-38.6533,178.0042,ASURE Alfresco Motor Lodge
522,Sakakah,SA,53.6,clear sky,29.9697,40.2064,Fakhamat Al Orjoana Apartment
524,Baculin,PH,77.4,overcast clouds,7.4525,126.5842,Shovy's Cove
526,Arrifes,PT,61.0,broken clouds,37.7667,-25.7,Hotel Ponta Delgada
527,Guerande,FR,46.4,few clouds,47.3291,-2.4283,Best Western Hôtel de la Cité
528,Arshan,RU,24.8,light snow,46.2732,44.22,Guest House The Green Village
529,Alto Araguaia,BR,80.46,broken clouds,-17.3147,-53.2153,Araguaia Palace Hotel
531,Ruwi,OM,69.8,clear sky,23.5996,58.5507,Al Falaj Hotel
532,Takoradi,GH,80.83,clear sky,4.8845,-1.7554,Raybow International Hotel
533,Chapulhuacan,MX,86.09,few clouds,21.1667,-98.9,Hotel Posada Don Mauro
535,Lumby,CA,34.0,overcast clouds,50.2498,-118.969,Twin Creeks Motel
536,Half Moon Bay,US,61.0,haze,37.4636,-122.4286,"The Ritz-Carlton, Half Moon Bay"
537,Odweyne,SO,69.69,clear sky,9.4092,45.064,Eng Hiirey House
540,Looc,PH,77.16,overcast clouds,12.2605,121.9926,Cummings Highlands
541,Yining,CN,50.74,clear sky,29.0361,114.5636,Xiushui Hotel
542,Akdepe,TM,46.4,clear sky,42.0551,59.3788,Мой дом
543,Vasto,IT,50.0,overcast clouds,42.1243,14.7059,Hotel President
544,Saga,JP,44.01,clear sky,33.2493,130.2988,Hotel New Otani Saga
545,Anloga,GH,86.0,few clouds,5.7947,0.8973,Pin Drop Hotel
546,Mombasa,KE,82.4,few clouds,-4.0547,39.6636,New Palm Tree Hotel
548,Saint-Francois,FR,48.99,overcast clouds,46.4154,3.9054,Manoir Du Bonheur
549,Yantai,CN,36.86,clear sky,37.5333,121.4,Yantai Seaside International Youth Hostel
550,Dandong,CN,24.4,overcast clouds,40.1292,124.3947,Yiranju Farmstay
551,Aviles,ES,48.99,scattered clouds,43.5547,-5.9248,Hotel NH Collection Palacio de Avilés
552,Ghanzi,BW,69.44,moderate rain,-21.5667,21.7833,Ghanzi Farmhouse
553,Sukhumi,GE,49.51,overcast clouds,43.0033,41.0153,Ritsa Hotel
554,Mildura,AU,60.8,clear sky,-34.2,142.15,Mercure Hotel Mildura
555,Sao Jose De Mipibu,BR,87.8,scattered clouds,-6.0747,-35.2378,Rancho Crepusculo
557,Garowe,SO,70.2,clear sky,8.4054,48.4845,Curubo Hotel
558,Mecca,SA,67.62,clear sky,21.4267,39.8261,"Makkah Clock Royal Tower, A Fairmont Hotel"
561,Grants,US,42.8,clear sky,35.1473,-107.8514,"Motel 6 Grants, NM"
562,Inhambane,MZ,82.4,few clouds,-23.865,35.3833,Oceano
563,Labuhan,ID,77.83,clear sky,-6.8844,112.2051,PT PPI Lamongan Tambak C
564,Merke,KZ,42.64,moderate rain,42.8728,73.1786,Gostinitsa Merki
566,Aksu,CN,26.55,clear sky,41.1231,80.2644,Pudong Holiday Hotel
567,Fereydun Kenar,IR,53.26,overcast clouds,36.6864,52.5225,Khezer Shahr Tourist Hotel
568,Civitavecchia,IT,62.6,clear sky,42.0933,11.7967,Hotel Mediterraneo
570,Huarmey,PE,75.85,few clouds,-10.0681,-78.1522,Hotel Miramar
571,Standerton,ZA,62.01,overcast clouds,-26.9337,29.2415,Terrace Lofts
572,Hanzhong,CN,47.26,overcast clouds,33.0728,107.0303,Guorui Hotel
573,Rocha,UY,82.0,clear sky,-34.4833,-54.3333,Beleza Pura B&B
574,Salalah,OM,75.2,scattered clouds,17.0151,54.0924,HAMDAN PLAZA HOTEL SALALAH
575,Alexandria,EG,60.8,clear sky,31.2156,29.9553,Royal Crown Hotel
578,Mega,ET,66.6,scattered clouds,4.05,38.3,Amanuel Guest House
579,Strezhevoy,RU,32.0,light rain,60.7333,77.5889,Sibiryachka
581,Jefferson City,US,28.4,overcast clouds,38.5767,-92.1735,DoubleTree by Hilton Hotel Jefferson City
582,La Tuque,CA,21.2,overcast clouds,47.4334,-72.7824,The Gite du Parc
586,Acapulco,MX,84.2,few clouds,16.8634,-99.8901,HS Hotsson Smart Acapulco
587,Corona,US,73.0,clear sky,33.8753,-117.5664,Holiday Inn Express & Suites Corona
589,Marsh Harbour,BS,77.32,clear sky,26.5412,-77.0636,Abaco Beach Resort
590,Palmer,US,41.0,broken clouds,42.1584,-72.3287,Wedgewood Motel
592,Waverley,ZA,68.0,overcast clouds,-25.7023,28.2591,Aves Indigo Guesthouse
593,Plymouth,US,45.0,few clouds,41.8334,-70.8328,Rodeway Inn Middleboro-Plymouth
594,Mogadishu,SO,77.23,clear sky,2.0371,45.3438,Hotel Juba
595,Puri,IN,68.0,mist,19.8,85.85,OYO 1577 Hotel Shree Hari Grand
597,Vila Franca Do Campo,PT,61.0,broken clouds,37.7167,-25.4333,Pestana Bahia Praia
598,Jiuquan,CN,27.86,few clouds,39.7432,98.5174,Jiuquan Hotel
599,Nortelandia,BR,89.1,overcast clouds,-14.4547,-56.8028,Hotel Karysmã
600,Mizan Teferi,ET,69.44,few clouds,6.9833,35.5833,Hotel Salayish | ሆቴል ሳላይሽ
603,Castillo De Teayo,MX,86.0,few clouds,20.75,-97.6167,Fuente de sodas el palmito
604,Sola,VU,75.2,few clouds,-13.8833,167.55,Leumerus Bungalows
605,Te Anau,NZ,52.39,few clouds,-45.4167,167.7167,Kingsgate Hotel Te Anau
606,Port Blair,IN,78.58,scattered clouds,11.6667,92.75,Welcomhotel Bay Island Port Blair
610,Amarpur,IN,55.99,clear sky,25.0333,86.9,Amit kirana store
611,Arrecife,ES,62.6,few clouds,28.963,-13.5477,Hotel Lancelot
613,Gravdal,NO,32.88,broken clouds,68.1214,13.5031,Skreda Rorbusuiter
614,Makakilo City,US,69.8,overcast clouds,21.3469,-158.0858,Marriott's Ko Olina Beach Club
615,Kargasok,RU,33.69,overcast clouds,59.0556,80.8572,Hotel Kargasok
616,Cap Malheureux,MU,80.01,clear sky,-19.9842,57.6142,Pereybere Hotel & Spa
618,Sabang,ID,81.27,light rain,5.8933,95.3214,Hotel Citra
619,Kawalu,ID,72.3,overcast clouds,-7.3817,108.2082,KOSAN UNGU UNSIK
621,Port Hardy,CA,42.8,light rain,50.6996,-127.4199,Airport Inn
622,Menongue,AO,69.19,overcast clouds,-14.6585,17.691,Ritz Lauca
623,Eyl,SO,75.69,clear sky,7.9803,49.8164,Amiin Hotel
624,Ponot,PH,78.6,overcast clouds,8.452,123.0222,Jose Dalman Municipal Building
625,Vasteras,SE,21.2,overcast clouds,59.6162,16.5528,Scandic Västerås
626,Birjand,IR,50.0,clear sky,32.8663,59.2211,Birjand Tourist Hotel
627,Ruteng,ID,63.84,overcast clouds,-8.6136,120.4721,Hotel FX72 Ruteng
628,Govindgarh,IN,54.09,clear sky,27.5,76.9833,Bana Ji Hotel & Restrorant
629,Raudeberg,NO,24.8,clear sky,61.9875,5.1352,Nordre Silda.
630,Shumikha,RU,33.48,overcast clouds,55.2261,63.2961,Shumikha
632,Sikonge,TZ,69.8,light rain,-5.6333,32.7667,Daukilo Lodge
634,Marica,BR,71.01,heavy intensity rain,-22.9194,-42.8186,Marica Hills
637,Chabahar,IR,68.04,clear sky,25.2919,60.643,هتل گدروشیا
638,Tura,IN,59.43,overcast clouds,25.5198,90.2201,Hotel RIKMAN Continental
639,Nuevo Progreso,MX,80.01,clear sky,23.1667,-97.95,Balneario Rio el Paraiso
640,Garmsar,IR,55.06,overcast clouds,35.2182,52.3409,Peyvand Hotel
642,Snihurivka,UA,24.8,clear sky,47.0758,32.8052,SuperSharik
643,Ranfurly,NZ,55.99,clear sky,-45.1333,170.1,Ranfurly Holiday Park Motels & Cabins
644,Itanagar,IN,58.66,few clouds,27.1,93.6167,OYO 45507 Hotel Moomsie
645,Chanute,US,32.0,overcast clouds,37.6792,-95.4572,Guest House Motel Chanute
646,Vila Velha,BR,86.0,few clouds,-20.3297,-40.2925,Hotel Vitória Palace
647,Leo,BF,86.11,overcast clouds,11.1,-2.1,Hotel Sissilis
648,Piacabucu,BR,85.1,clear sky,-10.4056,-36.4344,Piaçabuçu News
649,Hualmay,PE,75.22,broken clouds,-11.0964,-77.6139,Hotel Villa Kitzia Huacho
652,Zapolyarnyy,RU,24.8,light snow,69.4154,30.8136,Pechenga
653,Tevriz,RU,34.14,overcast clouds,57.509,72.4042,Postoyalyy Dvor
655,Manggar,ID,79.43,overcast clouds,-2.8833,108.2667,Guest Hotel
656,Saint-Georges,GD,84.2,few clouds,12.0564,-61.7485,Siesta Hotel
657,Bereda,ES,42.01,overcast clouds,43.2686,-7.5406,Pazo de Verdes
660,Chichli,IN,53.96,clear sky,22.8333,78.8167,जयश टेंट हाउस चीचली
661,Kasempa,ZM,67.35,overcast clouds,-13.4584,25.8338,Jipumpu Guest House
662,Kaputa,ZM,71.04,light rain,-8.4689,29.6619,Chelelwa Charlets
663,Mamallapuram,IN,73.4,mist,12.6264,80.1722,Radisson Blu Resort Temple Bay Mamallapuram
664,Pringsewu,ID,73.42,broken clouds,-5.3582,104.9744,Urban Style by Front One
665,Soma,TR,55.4,clear sky,39.1855,27.6094,Hotel Labella
666,Jacmel,HT,89.6,few clouds,18.2342,-72.5347,Hotel Florita
667,Salamiyah,SY,52.5,clear sky,35.0113,37.0532,Gondolas Forum grandchildren and grandparents
668,Taitung,TW,65.79,clear sky,22.7583,121.1444,Taitung Bali Suites Hotel
669,Havoysund,NO,26.6,light snow,70.9963,24.6622,Arctic View Glamping & Restaurant
670,Canutama,BR,85.01,overcast clouds,-6.5339,-64.3831,Hotel Jhennifer
671,Humaita,BR,80.62,overcast clouds,-7.5061,-63.0208,Corrêa Hotel
673,Xinyu,CN,52.3,clear sky,27.8043,114.9334,Xinyu Beihu Hotel
675,Kota Kinabalu,MY,77.0,few clouds,5.9749,116.0724,Gaya Centre Hotel
677,Court-Saint-Etienne,BE,41.0,light rain,50.6167,4.5667,La Pallande
678,Jardim,BR,84.97,clear sky,-21.4803,-56.1381,Estancia Hotel - Jardim MS
679,Mekhe,SN,77.0,clear sky,15.1097,-16.6218,Hôtel Keur Mame Astou
680,Grafton,US,39.99,clear sky,42.207,-71.6856,The Grafton Inn
